<?xml version="1.0" encoding="UTF-8" standalone="yes"?>
<kml xmlns="http://www.opengis.net/kml/2.2" xmlns:gx="http://www.google.com/kml/ext/2.2" xmlns:atom="http://www.w3.org/2005/Atom" xmlns:xal="urn:oasis:names:tc:ciq:xsdschema:xAL:2.0">
    <Document>
        <Placemark>
            <name>Burgerim</name>
            <open>1</open>
            <description>mac: cc:b2:55:68:13:c0 freq: 2437 signal: -83</description>
            <TimeStamp>
                <when>2017-10-27T16:41:04</when>
            </TimeStamp>
            <Point>
                <coordinates>34.80997916,32.16255321,25.0</coordinates>
            </Point>
        </Placemark>
        <Placemark>
            <name>offise2.4</name>
            <open>1</open>
            <description>mac: 48:ee:0c:3e:ad:41 freq: 2447 signal: -84</description>
            <TimeStamp>
                <when>2017-10-27T16:41:04</when>
            </TimeStamp>
            <Point>
                <coordinates>34.80997916,32.16255321,25.0</coordinates>
            </Point>
        </Placemark>
        <Placemark>
            <name>Bezeq Free</name>
            <open>1</open>
            <description>mac: 5a:b2:55:68:13:c1 freq: 2437 signal: -84</description>
            <TimeStamp>
                <when>2017-10-27T16:41:04</when>
            </TimeStamp>
            <Point>
                <coordinates>34.80997916,32.16255321,25.0</coordinates>
            </Point>
        </Placemark>
        <Placemark>
            <name></name>
            <open>1</open>
            <description>mac: 94:b4:0f:d1:60:12 freq: 5240 signal: -75</description>
            <TimeStamp>
                <when>2017-10-27T16:39:44</when>
            </TimeStamp>
            <Point>
                <coordinates>34.80894547,32.1618688,15.0</coordinates>
            </Point>
        </Placemark>
        <Placemark>
            <name>Matrix HZ WiFi</name>
            <open>1</open>
            <description>mac: ec:8c:a2:08:f1:98 freq: 2427 signal: -86</description>
            <TimeStamp>
                <when>2017-10-27T16:41:04</when>
            </TimeStamp>
            <Point>
                <coordinates>34.80997916,32.16255321,25.0</coordinates>
            </Point>
        </Placemark>
        <Placemark>
            <name>Life</name>
            <open>1</open>
            <description>mac: 94:b4:0f:d1:60:10 freq: 5240 signal: -75</description>
            <TimeStamp>
                <when>2017-10-27T16:39:44</when>
            </TimeStamp>
            <Point>
                <coordinates>34.80894547,32.1618688,15.0</coordinates>
            </Point>
        </Placemark>
        <Placemark>
            <name>vecorp</name>
            <open>1</open>
            <description>mac: 84:80:2d:ed:43:e0 freq: 2412 signal: -87</description>
            <TimeStamp>
                <when>2017-10-27T16:41:04</when>
            </TimeStamp>
            <Point>
                <coordinates>34.80997916,32.16255321,25.0</coordinates>
            </Point>
        </Placemark>
        <Placemark>
            <name>MWTL Mobile (POMS)</name>
            <open>1</open>
            <description>mac: ec:8c:a2:88:f1:98 freq: 2427 signal: -86</description>
            <TimeStamp>
                <when>2017-10-27T16:41:03</when>
            </TimeStamp>
            <Point>
                <coordinates>34.80988726,32.16243581,37.0</coordinates>
            </Point>
        </Placemark>
        <Placemark>
            <name></name>
            <open>1</open>
            <description>mac: 94:b4:0f:d1:60:14 freq: 5240 signal: -75</description>
            <TimeStamp>
                <when>2017-10-27T16:39:44</when>
            </TimeStamp>
            <Point>
                <coordinates>34.80894547,32.1618688,15.0</coordinates>
            </Point>
        </Placemark>
        <Placemark>
            <name>MWTL</name>
            <open>1</open>
            <description>mac: ec:8c:a2:48:f1:98 freq: 2427 signal: -88</description>
            <TimeStamp>
                <when>2017-10-27T16:41:04</when>
            </TimeStamp>
            <Point>
                <coordinates>34.80997916,32.16255321,25.0</coordinates>
            </Point>
        </Placemark>
        <Placemark>
            <name>kessel_2</name>
            <open>1</open>
            <description>mac: 90:ef:68:30:6b:69 freq: 2432 signal: -75</description>
            <TimeStamp>
                <when>2017-10-27T16:28:00</when>
            </TimeStamp>
            <Point>
                <coordinates>34.81022347,32.16799923,17.0</coordinates>
            </Point>
        </Placemark>
        <Placemark>
            <name>888Corp</name>
            <open>1</open>
            <description>mac: 0a:8d:db:6e:71:13 freq: 2412 signal: -83</description>
            <TimeStamp>
                <when>2017-10-27T16:16:09</when>
            </TimeStamp>
            <Point>
                <coordinates>34.81029707,32.16808141,27.0</coordinates>
            </Point>
        </Placemark>
        <Placemark>
            <name>888Free</name>
            <open>1</open>
            <description>mac: 06:8d:db:6e:71:13 freq: 2412 signal: -85</description>
            <TimeStamp>
                <when>2017-10-27T16:28:03</when>
            </TimeStamp>
            <Point>
                <coordinates>34.8100792,32.16776437,19.0</coordinates>
            </Point>
        </Placemark>
        <Placemark>
            <name>RS_GUEST</name>
            <open>1</open>
            <description>mac: ec:08:6b:38:0d:dd freq: 2472 signal: -79</description>
            <TimeStamp>
                <when>2017-10-27T16:18:39</when>
            </TimeStamp>
            <Point>
                <coordinates>34.80965767,32.16743172,9.0</coordinates>
            </Point>
        </Placemark>
        <Placemark>
            <name>DanAccadia</name>
            <open>1</open>
            <description>mac: 0c:f4:d5:1b:e1:58 freq: 2427 signal: -85</description>
            <TimeStamp>
                <when>2017-10-27T16:23:37</when>
            </TimeStamp>
            <Point>
                <coordinates>34.80011614,32.16840058,28.0</coordinates>
            </Point>
        </Placemark>
        <Placemark>
            <name>HP-Print-45-Deskjet 4640 series</name>
            <open>1</open>
            <description>mac: 5c:b9:01:6a:8c:45 freq: 2437 signal: -86</description>
            <TimeStamp>
                <when>2017-10-27T16:21:33</when>
            </TimeStamp>
            <Point>
                <coordinates>34.80079707,32.1707069,29.0</coordinates>
            </Point>
        </Placemark>
        <Placemark>
            <name>phily</name>
            <open>1</open>
            <description>mac: 2c:b0:5d:40:dc:ac freq: 2462 signal: -92</description>
            <TimeStamp>
                <when>2017-10-27T16:21:26</when>
            </TimeStamp>
            <Point>
                <coordinates>34.80053822,32.17015135,30.0</coordinates>
            </Point>
        </Placemark>
        <Placemark>
            <name>BENY PUR</name>
            <open>1</open>
            <description>mac: d8:fe:e3:03:c7:b1 freq: 2437 signal: -74</description>
            <TimeStamp>
                <when>2017-10-27T16:37:10</when>
            </TimeStamp>
            <Point>
                <coordinates>34.80810925,32.16701367,22.0</coordinates>
            </Point>
        </Placemark>
        <Placemark>
            <name>Bezeq-N_2db33b</name>
            <open>1</open>
            <description>mac: fc:75:16:2d:b3:3c freq: 2437 signal: -86</description>
            <TimeStamp>
                <when>2017-10-27T16:44:19</when>
            </TimeStamp>
            <Point>
                <coordinates>34.80927624,32.16794249,23.0</coordinates>
            </Point>
        </Placemark>
        <Placemark>
            <name>frenkel</name>
            <open>1</open>
            <description>mac: 48:ee:0c:3f:38:55 freq: 2427 signal: -89</description>
            <TimeStamp>
                <when>2017-10-27T16:44:19</when>
            </TimeStamp>
            <Point>
                <coordinates>34.8093861,32.16794452,26.0</coordinates>
            </Point>
        </Placemark>
        <Placemark>
            <name>  InnovationEndeavors</name>
            <open>1</open>
            <description>mac: 74:da:38:a9:1c:df freq: 2427 signal: -74</description>
            <TimeStamp>
                <when>2017-10-27T16:42:34</when>
            </TimeStamp>
            <Point>
                <coordinates>34.81158323,32.16550614,37.0</coordinates>
            </Point>
        </Placemark>
        <Placemark>
            <name>BezeqNGN_001489_2.4GHz_1</name>
            <open>1</open>
            <description>mac: c0:a0:bb:cb:59:5b freq: 2462 signal: -92</description>
            <TimeStamp>
                <when>2017-10-27T16:27:45</when>
            </TimeStamp>
            <Point>
                <coordinates>34.81081783,32.16957016,18.0</coordinates>
            </Point>
        </Placemark>
        <Placemark>
            <name>Lili</name>
            <open>1</open>
            <description>mac: c4:12:f5:f9:5c:7c freq: 2462 signal: -89</description>
            <TimeStamp>
                <when>2017-10-27T16:27:57</when>
            </TimeStamp>
            <Point>
                <coordinates>34.81035666,32.16828928,18.0</coordinates>
            </Point>
        </Placemark>
        <Placemark>
            <name>home</name>
            <open>1</open>
            <description>mac: 00:13:d4:0f:f3:ba freq: 2412 signal: -86</description>
            <TimeStamp>
                <when>2017-10-27T16:27:31</when>
            </TimeStamp>
            <Point>
                <coordinates>34.81150762,32.17093107,34.0</coordinates>
            </Point>
        </Placemark>
        <Placemark>
            <name>V6_guest</name>
            <open>1</open>
            <description>mac: 3c:1e:04:08:b2:36 freq: 2412 signal: -75</description>
            <TimeStamp>
                <when>2017-10-27T16:41:31</when>
            </TimeStamp>
            <Point>
                <coordinates>34.81137867,32.16475405,33.0</coordinates>
            </Point>
        </Placemark>
        <Placemark>
            <name>Stratoscale</name>
            <open>1</open>
            <description>mac: 00:35:1a:d3:50:20 freq: 2412 signal: -76</description>
            <TimeStamp>
                <when>2017-10-27T16:41:31</when>
            </TimeStamp>
            <Point>
                <coordinates>34.81137867,32.16475405,33.0</coordinates>
            </Point>
        </Placemark>
        <Placemark>
            <name>office</name>
            <open>1</open>
            <description>mac: 14:ae:db:56:e6:d5 freq: 2412 signal: -77</description>
            <TimeStamp>
                <when>2017-10-27T16:41:31</when>
            </TimeStamp>
            <Point>
                <coordinates>34.81137867,32.16475405,33.0</coordinates>
            </Point>
        </Placemark>
        <Placemark>
            <name>StratoGuests</name>
            <open>1</open>
            <description>mac: 00:35:1a:d3:50:21 freq: 2412 signal: -77</description>
            <TimeStamp>
                <when>2017-10-27T16:41:31</when>
            </TimeStamp>
            <Point>
                <coordinates>34.81137867,32.16475405,33.0</coordinates>
            </Point>
        </Placemark>
        <Placemark>
            <name>HP-Print-D6-Officejet 6700</name>
            <open>1</open>
            <description>mac: 2c:59:e5:db:2c:d6 freq: 2437 signal: -79</description>
            <TimeStamp>
                <when>2017-10-27T16:41:31</when>
            </TimeStamp>
            <Point>
                <coordinates>34.81137867,32.16475405,33.0</coordinates>
            </Point>
        </Placemark>
        <Placemark>
            <name>LIAT</name>
            <open>1</open>
            <description>mac: 14:ae:db:39:31:d5 freq: 2462 signal: -79</description>
            <TimeStamp>
                <when>2017-10-27T16:41:31</when>
            </TimeStamp>
            <Point>
                <coordinates>34.81137867,32.16475405,33.0</coordinates>
            </Point>
        </Placemark>
        <Placemark>
            <name>Sugarmama</name>
            <open>1</open>
            <description>mac: 2c:c5:d3:10:96:88 freq: 2412 signal: -81</description>
            <TimeStamp>
                <when>2017-10-27T16:41:31</when>
            </TimeStamp>
            <Point>
                <coordinates>34.81137867,32.16475405,33.0</coordinates>
            </Point>
        </Placemark>
        <Placemark>
            <name>podatacall2.4</name>
            <open>1</open>
            <description>mac: c4:12:f5:f7:74:f2 freq: 2452 signal: -81</description>
            <TimeStamp>
                <when>2017-10-27T16:41:31</when>
            </TimeStamp>
            <Point>
                <coordinates>34.81137867,32.16475405,33.0</coordinates>
            </Point>
        </Placemark>
        <Placemark>
            <name>AmGuest1</name>
            <open>1</open>
            <description>mac: 02:10:f3:63:f7:67 freq: 2427 signal: -76</description>
            <TimeStamp>
                <when>2017-10-27T16:41:19</when>
            </TimeStamp>
            <Point>
                <coordinates>34.81074336,32.16384504,36.0</coordinates>
            </Point>
        </Placemark>
        <Placemark>
            <name>SP(2.4)</name>
            <open>1</open>
            <description>mac: ec:08:6b:38:11:af freq: 2457 signal: -85</description>
            <TimeStamp>
                <when>2017-10-27T16:41:31</when>
            </TimeStamp>
            <Point>
                <coordinates>34.81137867,32.16475405,33.0</coordinates>
            </Point>
        </Placemark>
        <Placemark>
            <name>oren1</name>
            <open>1</open>
            <description>mac: 00:78:9e:fb:bc:7c freq: 2412 signal: -77</description>
            <TimeStamp>
                <when>2017-10-27T16:26:28</when>
            </TimeStamp>
            <Point>
                <coordinates>34.80825376,32.17343059,40.0</coordinates>
            </Point>
        </Placemark>
        <Placemark>
            <name>HOTBOX-3724</name>
            <open>1</open>
            <description>mac: 00:78:9e:fb:7f:c0 freq: 2462 signal: -87</description>
            <TimeStamp>
                <when>2017-10-27T16:26:28</when>
            </TimeStamp>
            <Point>
                <coordinates>34.80825376,32.17343059,40.0</coordinates>
            </Point>
        </Placemark>
        <Placemark>
            <name>berko_5</name>
            <open>1</open>
            <description>mac: 10:5a:f7:06:d2:0a freq: 5260 signal: -89</description>
            <TimeStamp>
                <when>2017-10-27T16:26:28</when>
            </TimeStamp>
            <Point>
                <coordinates>34.80825376,32.17343059,40.0</coordinates>
            </Point>
        </Placemark>
        <Placemark>
            <name>Momo_5</name>
            <open>1</open>
            <description>mac: 14:ae:db:cd:36:3d freq: 5240 signal: -90</description>
            <TimeStamp>
                <when>2017-10-27T16:26:28</when>
            </TimeStamp>
            <Point>
                <coordinates>34.80825376,32.17343059,40.0</coordinates>
            </Point>
        </Placemark>
        <Placemark>
            <name>SashaHome</name>
            <open>1</open>
            <description>mac: ac:f1:df:9e:31:81 freq: 2437 signal: -90</description>
            <TimeStamp>
                <when>2017-10-27T16:26:28</when>
            </TimeStamp>
            <Point>
                <coordinates>34.80825376,32.17343059,40.0</coordinates>
            </Point>
        </Placemark>
        <Placemark>
            <name>peles</name>
            <open>1</open>
            <description>mac: 5c:d9:98:c6:50:2f freq: 2437 signal: -90</description>
            <TimeStamp>
                <when>2017-10-27T16:26:28</when>
            </TimeStamp>
            <Point>
                <coordinates>34.80825376,32.17343059,40.0</coordinates>
            </Point>
        </Placemark>
        <Placemark>
            <name>888Guest</name>
            <open>1</open>
            <description>mac: 02:8d:db:6e:71:6d freq: 2412 signal: -81</description>
            <TimeStamp>
                <when>2017-10-27T16:16:43</when>
            </TimeStamp>
            <Point>
                <coordinates>34.80985926,32.1676581,43.0</coordinates>
            </Point>
        </Placemark>
        <Placemark>
            <name>brieftrace5</name>
            <open>1</open>
            <description>mac: 90:8d:78:51:52:fb freq: 5240 signal: -79</description>
            <TimeStamp>
                <when>2017-10-27T16:35:49</when>
            </TimeStamp>
            <Point>
                <coordinates>34.80912469,32.16706717,29.0</coordinates>
            </Point>
        </Placemark>
        <Placemark>
            <name>Pitarohecht</name>
            <open>1</open>
            <description>mac: 00:02:6f:a6:f1:f3 freq: 2412 signal: -66</description>
            <TimeStamp>
                <when>2017-10-27T16:43:02</when>
            </TimeStamp>
            <Point>
                <coordinates>34.8095758,32.16650275,30.0</coordinates>
            </Point>
        </Placemark>
        <Placemark>
            <name>Maxillent</name>
            <open>1</open>
            <description>mac: 90:6c:ac:60:6c:8b freq: 2422 signal: -87</description>
            <TimeStamp>
                <when>2017-10-27T16:43:04</when>
            </TimeStamp>
            <Point>
                <coordinates>34.80942216,32.16656924,29.0</coordinates>
            </Point>
        </Placemark>
        <Placemark>
            <name>BlueSnap-Guest-2.4GHz</name>
            <open>1</open>
            <description>mac: 00:02:6f:bb:fd:ac freq: 2412 signal: -74</description>
            <TimeStamp>
                <when>2017-10-27T16:18:59</when>
            </TimeStamp>
            <Point>
                <coordinates>34.80867405,32.16683927,18.0</coordinates>
            </Point>
        </Placemark>
        <Placemark>
            <name>rainbow</name>
            <open>1</open>
            <description>mac: ee:9f:db:7f:73:aa freq: 2412 signal: -81</description>
            <TimeStamp>
                <when>2017-10-27T16:38:07</when>
            </TimeStamp>
            <Point>
                <coordinates>34.80637038,32.16342031,23.0</coordinates>
            </Point>
        </Placemark>
        <Placemark>
            <name>KD_Office_2</name>
            <open>1</open>
            <description>mac: 74:da:38:2e:ab:c9 freq: 2432 signal: -70</description>
            <TimeStamp>
                <when>2017-10-27T16:42:52</when>
            </TimeStamp>
            <Point>
                <coordinates>34.81070264,32.16603024,31.0</coordinates>
            </Point>
        </Placemark>
        <Placemark>
            <name>AppsFlyer Guest</name>
            <open>1</open>
            <description>mac: 82:15:54:a8:8d:ef freq: 5180 signal: -87</description>
            <TimeStamp>
                <when>2017-10-27T16:38:07</when>
            </TimeStamp>
            <Point>
                <coordinates>34.80637038,32.16342031,23.0</coordinates>
            </Point>
        </Placemark>
        <Placemark>
            <name>AppsFlyer Biz</name>
            <open>1</open>
            <description>mac: 8a:15:54:a8:8d:ef freq: 5180 signal: -88</description>
            <TimeStamp>
                <when>2017-10-27T16:38:07</when>
            </TimeStamp>
            <Point>
                <coordinates>34.80637038,32.16342031,23.0</coordinates>
            </Point>
        </Placemark>
        <Placemark>
            <name>AppsFlyer R&amp;D</name>
            <open>1</open>
            <description>mac: 8e:15:54:a8:8d:ef freq: 5180 signal: -88</description>
            <TimeStamp>
                <when>2017-10-27T16:38:07</when>
            </TimeStamp>
            <Point>
                <coordinates>34.80637038,32.16342031,23.0</coordinates>
            </Point>
        </Placemark>
        <Placemark>
            <name>tzunami2</name>
            <open>1</open>
            <description>mac: 4c:e6:76:22:44:af freq: 2427 signal: -89</description>
            <TimeStamp>
                <when>2017-10-27T16:38:07</when>
            </TimeStamp>
            <Point>
                <coordinates>34.80637038,32.16342031,23.0</coordinates>
            </Point>
        </Placemark>
        <Placemark>
            <name>MVwireless</name>
            <open>1</open>
            <description>mac: 4a:d9:e7:59:4a:f2 freq: 2412 signal: -91</description>
            <TimeStamp>
                <when>2017-10-27T16:38:07</when>
            </TimeStamp>
            <Point>
                <coordinates>34.80637038,32.16342031,23.0</coordinates>
            </Point>
        </Placemark>
        <Placemark>
            <name>RTI 15</name>
            <open>1</open>
            <description>mac: 10:fe:ed:62:9e:5c freq: 2432 signal: -76</description>
            <TimeStamp>
                <when>2017-10-27T16:39:41</when>
            </TimeStamp>
            <Point>
                <coordinates>34.80861643,32.16203317,17.0</coordinates>
            </Point>
        </Placemark>
        <Placemark>
            <name>atid_5</name>
            <open>1</open>
            <description>mac: c4:04:15:4e:19:87 freq: 5300 signal: -84</description>
            <TimeStamp>
                <when>2017-10-27T16:39:29</when>
            </TimeStamp>
            <Point>
                <coordinates>34.80746568,32.1625067,21.0</coordinates>
            </Point>
        </Placemark>
        <Placemark>
            <name>Natam_sharon</name>
            <open>1</open>
            <description>mac: e4:6f:13:6f:c8:8a freq: 2452 signal: -81</description>
            <TimeStamp>
                <when>2017-10-27T16:39:46</when>
            </TimeStamp>
            <Point>
                <coordinates>34.80908009,32.16180496,27.0</coordinates>
            </Point>
        </Placemark>
        <Placemark>
            <name>atid_2.4</name>
            <open>1</open>
            <description>mac: c4:04:15:4e:19:86 freq: 2412 signal: -85</description>
            <TimeStamp>
                <when>2017-10-27T16:39:29</when>
            </TimeStamp>
            <Point>
                <coordinates>34.80746568,32.1625067,21.0</coordinates>
            </Point>
        </Placemark>
        <Placemark>
            <name>Paragon-Wifi</name>
            <open>1</open>
            <description>mac: 00:1d:aa:0f:51:38 freq: 2462 signal: -87</description>
            <TimeStamp>
                <when>2017-10-27T16:39:29</when>
            </TimeStamp>
            <Point>
                <coordinates>34.80746568,32.1625067,21.0</coordinates>
            </Point>
        </Placemark>
        <Placemark>
            <name>HP-Print-2a-LaserJet 400 MFP</name>
            <open>1</open>
            <description>mac: ac:d1:b8:ac:e8:2a freq: 2437 signal: -84</description>
            <TimeStamp>
                <when>2017-10-27T16:38:08</when>
            </TimeStamp>
            <Point>
                <coordinates>34.80634707,32.16336032,22.0</coordinates>
            </Point>
        </Placemark>
        <Placemark>
            <name>Tamar-Office</name>
            <open>1</open>
            <description>mac: 90:6c:ac:8f:fd:82 freq: 2412 signal: -87</description>
            <TimeStamp>
                <when>2017-10-27T16:39:29</when>
            </TimeStamp>
            <Point>
                <coordinates>34.80746568,32.1625067,21.0</coordinates>
            </Point>
        </Placemark>
        <Placemark>
            <name>TP-LINK_AP_AF8C</name>
            <open>1</open>
            <description>mac: 98:de:d0:d0:af:8c freq: 2437 signal: -88</description>
            <TimeStamp>
                <when>2017-10-27T16:39:29</when>
            </TimeStamp>
            <Point>
                <coordinates>34.80746568,32.1625067,21.0</coordinates>
            </Point>
        </Placemark>
        <Placemark>
            <name>marvin</name>
            <open>1</open>
            <description>mac: 04:a1:51:11:0e:ee freq: 2462 signal: -90</description>
            <TimeStamp>
                <when>2017-10-27T16:39:29</when>
            </TimeStamp>
            <Point>
                <coordinates>34.80746568,32.1625067,21.0</coordinates>
            </Point>
        </Placemark>
        <Placemark>
            <name>lapidot_5GHz_1</name>
            <open>1</open>
            <description>mac: 3c:1e:04:07:95:7c freq: 5240 signal: -91</description>
            <TimeStamp>
                <when>2017-10-27T16:39:29</when>
            </TimeStamp>
            <Point>
                <coordinates>34.80746568,32.1625067,21.0</coordinates>
            </Point>
        </Placemark>
        <Placemark>
            <name>Chen</name>
            <open>1</open>
            <description>mac: 14:ae:db:30:c9:d2 freq: 2417 signal: -75</description>
            <TimeStamp>
                <when>2017-10-27T16:23:37</when>
            </TimeStamp>
            <Point>
                <coordinates>34.80014633,32.1684013,27.0</coordinates>
            </Point>
        </Placemark>
        <Placemark>
            <name>BezeqFree</name>
            <open>1</open>
            <description>mac: 14:af:db:30:c9:d2 freq: 2417 signal: -75</description>
            <TimeStamp>
                <when>2017-10-27T16:23:37</when>
            </TimeStamp>
            <Point>
                <coordinates>34.80014633,32.1684013,27.0</coordinates>
            </Point>
        </Placemark>
        <Placemark>
            <name>hadad</name>
            <open>1</open>
            <description>mac: 70:62:b8:30:db:f8 freq: 2412 signal: -75</description>
            <TimeStamp>
                <when>2017-10-27T16:20:49</when>
            </TimeStamp>
            <Point>
                <coordinates>34.80091936,32.16846448,32.0</coordinates>
            </Point>
        </Placemark>
        <Placemark>
            <name>japan</name>
            <open>1</open>
            <description>mac: 70:62:b8:30:f8:4e freq: 2412 signal: -81</description>
            <TimeStamp>
                <when>2017-10-27T16:20:49</when>
            </TimeStamp>
            <Point>
                <coordinates>34.80091936,32.16846448,32.0</coordinates>
            </Point>
        </Placemark>
        <Placemark>
            <name>joy</name>
            <open>1</open>
            <description>mac: 9c:d6:43:23:0c:9c freq: 2437 signal: -84</description>
            <TimeStamp>
                <when>2017-10-27T16:20:51</when>
            </TimeStamp>
            <Point>
                <coordinates>34.80076466,32.16847482,32.0</coordinates>
            </Point>
        </Placemark>
        <Placemark>
            <name>pollock24</name>
            <open>1</open>
            <description>mac: 04:a1:51:d0:22:a5 freq: 2422 signal: -81</description>
            <TimeStamp>
                <when>2017-10-27T16:20:49</when>
            </TimeStamp>
            <Point>
                <coordinates>34.80091936,32.16846448,32.0</coordinates>
            </Point>
        </Placemark>
        <Placemark>
            <name>Chen_5</name>
            <open>1</open>
            <description>mac: 14:ae:db:30:c9:d5 freq: 5240 signal: -91</description>
            <TimeStamp>
                <when>2017-10-27T16:20:51</when>
            </TimeStamp>
            <Point>
                <coordinates>34.80076466,32.16847482,32.0</coordinates>
            </Point>
        </Placemark>
        <Placemark>
            <name>Video Connection</name>
            <open>1</open>
            <description>mac: 6c:b0:ce:e8:2a:50 freq: 2412 signal: -81</description>
            <TimeStamp>
                <when>2017-10-27T16:21:10</when>
            </TimeStamp>
            <Point>
                <coordinates>34.80027706,32.16913213,32.0</coordinates>
            </Point>
        </Placemark>
        <Placemark>
            <name>Video Connection</name>
            <open>1</open>
            <description>mac: 6c:b0:ce:e8:2e:50 freq: 2437 signal: -82</description>
            <TimeStamp>
                <when>2017-10-27T16:21:12</when>
            </TimeStamp>
            <Point>
                <coordinates>34.80030556,32.16930276,32.0</coordinates>
            </Point>
        </Placemark>
        <Placemark>
            <name>Sgreg</name>
            <open>1</open>
            <description>mac: 28:94:0f:f9:a6:d4 freq: 2417 signal: -85</description>
            <TimeStamp>
                <when>2017-10-27T16:21:01</when>
            </TimeStamp>
            <Point>
                <coordinates>34.80020728,32.16858542,37.0</coordinates>
            </Point>
        </Placemark>
        <Placemark>
            <name>wifi in car-0965</name>
            <open>1</open>
            <description>mac: 08:97:58:33:b1:52 freq: 2417 signal: -79</description>
            <TimeStamp>
                <when>2017-10-27T16:40:08</when>
            </TimeStamp>
            <Point>
                <coordinates>34.80923159,32.16172752,13.0</coordinates>
            </Point>
        </Placemark>
        <Placemark>
            <name></name>
            <open>1</open>
            <description>mac: fa:8f:ca:93:a5:64 freq: 2437 signal: -73</description>
            <TimeStamp>
                <when>2017-10-27T16:43:49</when>
            </TimeStamp>
            <Point>
                <coordinates>34.80840565,32.16699555,24.0</coordinates>
            </Point>
        </Placemark>
        <Placemark>
            <name>CMT-ALap</name>
            <open>1</open>
            <description>mac: 94:10:3e:a8:34:a0 freq: 5180 signal: -73</description>
            <TimeStamp>
                <when>2017-10-27T16:43:02</when>
            </TimeStamp>
            <Point>
                <coordinates>34.8095758,32.16650275,30.0</coordinates>
            </Point>
        </Placemark>
        <Placemark>
            <name>DIRECT-EA-HP OfficeJet Pro 6960</name>
            <open>1</open>
            <description>mac: 30:e1:71:c5:17:eb freq: 2437 signal: -84</description>
            <TimeStamp>
                <when>2017-10-27T16:43:49</when>
            </TimeStamp>
            <Point>
                <coordinates>34.80840565,32.16699555,24.0</coordinates>
            </Point>
        </Placemark>
        <Placemark>
            <name>bacapital</name>
            <open>1</open>
            <description>mac: 6c:b0:ce:ab:5a:a1 freq: 2412 signal: -76</description>
            <TimeStamp>
                <when>2017-10-27T16:42:58</when>
            </TimeStamp>
            <Point>
                <coordinates>34.80996014,32.1663079,28.0</coordinates>
            </Point>
        </Placemark>
        <Placemark>
            <name>Efrat Networks MM</name>
            <open>1</open>
            <description>mac: 94:f6:65:5b:b2:28 freq: 2432 signal: -84</description>
            <TimeStamp>
                <when>2017-10-27T16:28:06</when>
            </TimeStamp>
            <Point>
                <coordinates>34.80992403,32.167615,19.0</coordinates>
            </Point>
        </Placemark>
        <Placemark>
            <name>gigi1932</name>
            <open>1</open>
            <description>mac: 8c:59:c3:a2:9d:69 freq: 2462 signal: -84</description>
            <TimeStamp>
                <when>2017-10-27T16:19:12</when>
            </TimeStamp>
            <Point>
                <coordinates>34.80697148,32.16749167,39.0</coordinates>
            </Point>
        </Placemark>
        <Placemark>
            <name>HP-Print-A0-LaserJet Pro MFP</name>
            <open>1</open>
            <description>mac: 30:f7:72:6e:8e:a0 freq: 2437 signal: -73</description>
            <TimeStamp>
                <when>2017-10-27T16:43:04</when>
            </TimeStamp>
            <Point>
                <coordinates>34.80942216,32.16656924,29.0</coordinates>
            </Point>
        </Placemark>
        <Placemark>
            <name>HP-Print-b7-LaserJet 300</name>
            <open>1</open>
            <description>mac: 34:23:87:36:c9:b7 freq: 2412 signal: -77</description>
            <TimeStamp>
                <when>2017-10-27T16:43:01</when>
            </TimeStamp>
            <Point>
                <coordinates>34.80965132,32.16643649,28.0</coordinates>
            </Point>
        </Placemark>
        <Placemark>
            <name>DELEK-GROUP</name>
            <open>1</open>
            <description>mac: 34:db:fd:0a:68:80 freq: 2472 signal: -76</description>
            <TimeStamp>
                <when>2017-10-27T16:38:04</when>
            </TimeStamp>
            <Point>
                <coordinates>34.80647913,32.16364117,24.0</coordinates>
            </Point>
        </Placemark>
        <Placemark>
            <name>BezeqNGN_XA28CE_2.4GHz_1</name>
            <open>1</open>
            <description>mac: 6c:b0:ce:38:48:7f freq: 2437 signal: -76</description>
            <TimeStamp>
                <when>2017-10-27T16:38:04</when>
            </TimeStamp>
            <Point>
                <coordinates>34.80647913,32.16364117,24.0</coordinates>
            </Point>
        </Placemark>
        <Placemark>
            <name>DELEK-GUEST</name>
            <open>1</open>
            <description>mac: 34:db:fd:0a:68:81 freq: 2472 signal: -76</description>
            <TimeStamp>
                <when>2017-10-27T16:38:04</when>
            </TimeStamp>
            <Point>
                <coordinates>34.80647913,32.16364117,24.0</coordinates>
            </Point>
        </Placemark>
        <Placemark>
            <name>eliya23</name>
            <open>1</open>
            <description>mac: 00:1d:aa:7c:08:5c freq: 2462 signal: -79</description>
            <TimeStamp>
                <when>2017-10-27T16:39:25</when>
            </TimeStamp>
            <Point>
                <coordinates>34.80718554,32.1626396,19.0</coordinates>
            </Point>
        </Placemark>
        <Placemark>
            <name>S&amp;W</name>
            <open>1</open>
            <description>mac: 82:2a:a8:b5:b7:1a freq: 2462 signal: -82</description>
            <TimeStamp>
                <when>2017-10-27T16:38:04</when>
            </TimeStamp>
            <Point>
                <coordinates>34.80647913,32.16364117,24.0</coordinates>
            </Point>
        </Placemark>
        <Placemark>
            <name>DELEK-GUEST</name>
            <open>1</open>
            <description>mac: c0:25:5c:ec:9d:81 freq: 2452 signal: -83</description>
            <TimeStamp>
                <when>2017-10-27T16:38:04</when>
            </TimeStamp>
            <Point>
                <coordinates>34.80647913,32.16364117,24.0</coordinates>
            </Point>
        </Placemark>
        <Placemark>
            <name>drupe 2.4G</name>
            <open>1</open>
            <description>mac: ec:08:6b:27:b0:2f freq: 2427 signal: -70</description>
            <TimeStamp>
                <when>2017-10-27T16:38:25</when>
            </TimeStamp>
            <Point>
                <coordinates>34.80628582,32.16325827,21.0</coordinates>
            </Point>
        </Placemark>
        <Placemark>
            <name>Glilot1</name>
            <open>1</open>
            <description>mac: 70:4c:a5:13:f2:f5 freq: 2452 signal: -87</description>
            <TimeStamp>
                <when>2017-10-27T16:38:04</when>
            </TimeStamp>
            <Point>
                <coordinates>34.80647913,32.16364117,24.0</coordinates>
            </Point>
        </Placemark>
        <Placemark>
            <name>DELEK-GROUP</name>
            <open>1</open>
            <description>mac: 34:db:fd:0a:66:b0 freq: 2452 signal: -88</description>
            <TimeStamp>
                <when>2017-10-27T16:38:04</when>
            </TimeStamp>
            <Point>
                <coordinates>34.80647913,32.16364117,24.0</coordinates>
            </Point>
        </Placemark>
        <Placemark>
            <name>murraydiane</name>
            <open>1</open>
            <description>mac: c4:12:f5:83:aa:0c freq: 2462 signal: -85</description>
            <TimeStamp>
                <when>2017-10-27T16:38:28</when>
            </TimeStamp>
            <Point>
                <coordinates>34.80624872,32.16319135,33.0</coordinates>
            </Point>
        </Placemark>
        <Placemark>
            <name>Liv</name>
            <open>1</open>
            <description>mac: 00:10:f3:64:7f:a0 freq: 2412 signal: -83</description>
            <TimeStamp>
                <when>2017-10-27T16:40:57</when>
            </TimeStamp>
            <Point>
                <coordinates>34.80961771,32.16198048,23.0</coordinates>
            </Point>
        </Placemark>
        <Placemark>
            <name>Office Network</name>
            <open>1</open>
            <description>mac: 90:a7:c1:0c:4d:14 freq: 2457 signal: -77</description>
            <TimeStamp>
                <when>2017-10-27T16:41:01</when>
            </TimeStamp>
            <Point>
                <coordinates>34.80985384,32.16233648,24.0</coordinates>
            </Point>
        </Placemark>
        <Placemark>
            <name>Roladin</name>
            <open>1</open>
            <description>mac: 30:46:9a:23:af:c0 freq: 2437 signal: -85</description>
            <TimeStamp>
                <when>2017-10-27T16:40:57</when>
            </TimeStamp>
            <Point>
                <coordinates>34.80961771,32.16198048,23.0</coordinates>
            </Point>
        </Placemark>
        <Placemark>
            <name>Zerto Guests</name>
            <open>1</open>
            <description>mac: 1a:5b:0e:e8:56:cd freq: 2462 signal: -86</description>
            <TimeStamp>
                <when>2017-10-27T16:40:57</when>
            </TimeStamp>
            <Point>
                <coordinates>34.80961771,32.16198048,23.0</coordinates>
            </Point>
        </Placemark>
        <Placemark>
            <name>HP-Print-ca-LaserJet 400 MFP</name>
            <open>1</open>
            <description>mac: 0c:84:dc:3e:43:ca freq: 2412 signal: -85</description>
            <TimeStamp>
                <when>2017-10-27T16:41:09</when>
            </TimeStamp>
            <Point>
                <coordinates>34.81024857,32.16301273,31.0</coordinates>
            </Point>
        </Placemark>
        <Placemark>
            <name>Ezel dudi2.4</name>
            <open>1</open>
            <description>mac: 10:5a:f7:0a:2b:c1 freq: 2462 signal: -82</description>
            <TimeStamp>
                <when>2017-10-27T16:41:01</when>
            </TimeStamp>
            <Point>
                <coordinates>34.80985384,32.16233648,24.0</coordinates>
            </Point>
        </Placemark>
        <Placemark>
            <name>liv</name>
            <open>1</open>
            <description>mac: 14:cc:20:8e:97:09 freq: 2457 signal: -88</description>
            <TimeStamp>
                <when>2017-10-27T16:40:57</when>
            </TimeStamp>
            <Point>
                <coordinates>34.80961771,32.16198048,23.0</coordinates>
            </Point>
        </Placemark>
        <Placemark>
            <name>Carmel MR</name>
            <open>1</open>
            <description>mac: 10:be:f5:3a:ec:76 freq: 2452 signal: -89</description>
            <TimeStamp>
                <when>2017-10-27T16:40:57</when>
            </TimeStamp>
            <Point>
                <coordinates>34.80961771,32.16198048,23.0</coordinates>
            </Point>
        </Placemark>
        <Placemark>
            <name>A.M.P_EXT</name>
            <open>1</open>
            <description>mac: c4:6e:1f:54:4f:75 freq: 2412 signal: -83</description>
            <TimeStamp>
                <when>2017-10-27T16:39:41</when>
            </TimeStamp>
            <Point>
                <coordinates>34.80861643,32.16203317,17.0</coordinates>
            </Point>
        </Placemark>
        <Placemark>
            <name>Annatel_3372.5</name>
            <open>1</open>
            <description>mac: 74:da:38:a9:0c:43 freq: 5220 signal: -86</description>
            <TimeStamp>
                <when>2017-10-27T16:19:44</when>
            </TimeStamp>
            <Point>
                <coordinates>34.80502255,32.16806778,34.0</coordinates>
            </Point>
        </Placemark>
        <Placemark>
            <name>NIPPON_3575</name>
            <open>1</open>
            <description>mac: 08:97:58:32:d1:b8 freq: 2432 signal: -79</description>
            <TimeStamp>
                <when>2017-10-27T16:21:48</when>
            </TimeStamp>
            <Point>
                <coordinates>34.80118038,32.17165634,28.0</coordinates>
            </Point>
        </Placemark>
        <Placemark>
            <name>daniel</name>
            <open>1</open>
            <description>mac: e8:1d:a8:05:15:78 freq: 2437 signal: -84</description>
            <TimeStamp>
                <when>2017-10-27T16:21:48</when>
            </TimeStamp>
            <Point>
                <coordinates>34.80118038,32.17165634,28.0</coordinates>
            </Point>
        </Placemark>
        <Placemark>
            <name>daniel</name>
            <open>1</open>
            <description>mac: e8:1d:a8:05:0f:cc freq: 5260 signal: -87</description>
            <TimeStamp>
                <when>2017-10-27T16:21:48</when>
            </TimeStamp>
            <Point>
                <coordinates>34.80118038,32.17165634,28.0</coordinates>
            </Point>
        </Placemark>
        <Placemark>
            <name>daniel</name>
            <open>1</open>
            <description>mac: e8:1d:a8:05:0f:c8 freq: 2427 signal: -87</description>
            <TimeStamp>
                <when>2017-10-27T16:21:48</when>
            </TimeStamp>
            <Point>
                <coordinates>34.80118038,32.17165634,28.0</coordinates>
            </Point>
        </Placemark>
        <Placemark>
            <name>Heifes</name>
            <open>1</open>
            <description>mac: 20:0c:c8:10:c8:11 freq: 2412 signal: -80</description>
            <TimeStamp>
                <when>2017-10-27T16:37:10</when>
            </TimeStamp>
            <Point>
                <coordinates>34.80813818,32.16699571,30.0</coordinates>
            </Point>
        </Placemark>
        <Placemark>
            <name>HOTBOX-62D0_2EX</name>
            <open>1</open>
            <description>mac: 74:da:38:a6:3c:32 freq: 2412 signal: -82</description>
            <TimeStamp>
                <when>2017-10-27T16:23:05</when>
            </TimeStamp>
            <Point>
                <coordinates>34.80052059,32.1701581,35.0</coordinates>
            </Point>
        </Placemark>
        <Placemark>
            <name>Home.</name>
            <open>1</open>
            <description>mac: a0:ab:1b:62:a7:bc freq: 2412 signal: -80</description>
            <TimeStamp>
                <when>2017-10-27T16:19:09</when>
            </TimeStamp>
            <Point>
                <coordinates>34.80739313,32.16733646,38.0</coordinates>
            </Point>
        </Placemark>
        <Placemark>
            <name>Rabia</name>
            <open>1</open>
            <description>mac: 30:b5:c2:bd:52:40 freq: 2437 signal: -74</description>
            <TimeStamp>
                <when>2017-10-27T16:36:20</when>
            </TimeStamp>
            <Point>
                <coordinates>34.80723953,32.16737009,30.0</coordinates>
            </Point>
        </Placemark>
        <Placemark>
            <name>HOTFiber-2017</name>
            <open>1</open>
            <description>mac: 18:1e:78:86:00:63 freq: 2412 signal: -72</description>
            <TimeStamp>
                <when>2017-10-27T16:18:59</when>
            </TimeStamp>
            <Point>
                <coordinates>34.80867405,32.16683927,18.0</coordinates>
            </Point>
        </Placemark>
        <Placemark>
            <name>Efrat Networks NC</name>
            <open>1</open>
            <description>mac: 00:1d:aa:34:1e:58 freq: 2462 signal: -78</description>
            <TimeStamp>
                <when>2017-10-27T16:37:41</when>
            </TimeStamp>
            <Point>
                <coordinates>34.80816783,32.16577658,24.0</coordinates>
            </Point>
        </Placemark>
        <Placemark>
            <name>NIZZA333</name>
            <open>1</open>
            <description>mac: c0:ac:54:f5:e9:c8 freq: 2462 signal: -85</description>
            <TimeStamp>
                <when>2017-10-27T16:19:07</when>
            </TimeStamp>
            <Point>
                <coordinates>34.80765863,32.16721855,24.0</coordinates>
            </Point>
        </Placemark>
        <Placemark>
            <name>HOTFiber-2017</name>
            <open>1</open>
            <description>mac: 08:6a:0a:37:66:66 freq: 2412 signal: -77</description>
            <TimeStamp>
                <when>2017-10-27T16:18:59</when>
            </TimeStamp>
            <Point>
                <coordinates>34.80867405,32.16683927,18.0</coordinates>
            </Point>
        </Placemark>
        <Placemark>
            <name>KaymeraGuest</name>
            <open>1</open>
            <description>mac: 00:f6:63:3a:f4:82 freq: 2412 signal: -80</description>
            <TimeStamp>
                <when>2017-10-27T16:37:19</when>
            </TimeStamp>
            <Point>
                <coordinates>34.80857819,32.16680671,17.0</coordinates>
            </Point>
        </Placemark>
        <Placemark>
            <name>ASUS</name>
            <open>1</open>
            <description>mac: d0:17:c2:60:e7:38 freq: 2422 signal: -79</description>
            <TimeStamp>
                <when>2017-10-27T16:18:59</when>
            </TimeStamp>
            <Point>
                <coordinates>34.80867405,32.16683927,18.0</coordinates>
            </Point>
        </Placemark>
        <Placemark>
            <name>Video Connection</name>
            <open>1</open>
            <description>mac: 6c:b0:ce:e8:2a:b0 freq: 2412 signal: -78</description>
            <TimeStamp>
                <when>2017-10-27T16:21:07</when>
            </TimeStamp>
            <Point>
                <coordinates>34.80024686,32.16888669,30.0</coordinates>
            </Point>
        </Placemark>
        <Placemark>
            <name></name>
            <open>1</open>
            <description>mac: 0c:f4:d5:5b:09:98 freq: 2472 signal: -85</description>
            <TimeStamp>
                <when>2017-10-27T16:21:07</when>
            </TimeStamp>
            <Point>
                <coordinates>34.80024686,32.16888669,30.0</coordinates>
            </Point>
        </Placemark>
        <Placemark>
            <name>stefan</name>
            <open>1</open>
            <description>mac: e0:ce:c3:8c:2b:5a freq: 2437 signal: -80</description>
            <TimeStamp>
                <when>2017-10-27T16:20:46</when>
            </TimeStamp>
            <Point>
                <coordinates>34.80120414,32.16844882,35.0</coordinates>
            </Point>
        </Placemark>
        <Placemark>
            <name>DanAccadia</name>
            <open>1</open>
            <description>mac: 0c:f4:d5:1b:08:58 freq: 2467 signal: -83</description>
            <TimeStamp>
                <when>2017-10-27T16:23:34</when>
            </TimeStamp>
            <Point>
                <coordinates>34.80017541,32.16859061,28.0</coordinates>
            </Point>
        </Placemark>
        <Placemark>
            <name>DanAccadia</name>
            <open>1</open>
            <description>mac: 0c:f4:d5:1b:09:98 freq: 2472 signal: -82</description>
            <TimeStamp>
                <when>2017-10-27T16:23:44</when>
            </TimeStamp>
            <Point>
                <coordinates>34.8003488,32.16806437,26.0</coordinates>
            </Point>
        </Placemark>
        <Placemark>
            <name>rojavi</name>
            <open>1</open>
            <description>mac: 00:50:7f:f1:18:64 freq: 2462 signal: -69</description>
            <TimeStamp>
                <when>2017-10-27T16:26:09</when>
            </TimeStamp>
            <Point>
                <coordinates>34.80746254753361,32.17189056898307,51.12442568890585</coordinates>
            </Point>
        </Placemark>
        <Placemark>
            <name>upstairs</name>
            <open>1</open>
            <description>mac: d4:6e:0e:cf:bc:ca freq: 2437 signal: -84</description>
            <TimeStamp>
                <when>2017-10-27T16:25:58</when>
            </TimeStamp>
            <Point>
                <coordinates>34.80700602,32.17078967,29.0</coordinates>
            </Point>
        </Placemark>
        <Placemark>
            <name>obadiahouse1_2_4</name>
            <open>1</open>
            <description>mac: 6c:b0:ce:36:91:9f freq: 2412 signal: -85</description>
            <TimeStamp>
                <when>2017-10-27T16:25:58</when>
            </TimeStamp>
            <Point>
                <coordinates>34.80700602,32.17078967,29.0</coordinates>
            </Point>
        </Placemark>
        <Placemark>
            <name>tambourh</name>
            <open>1</open>
            <description>mac: 10:be:f5:3d:ac:54 freq: 2452 signal: -86</description>
            <TimeStamp>
                <when>2017-10-27T16:25:46</when>
            </TimeStamp>
            <Point>
                <coordinates>34.80649419,32.16953076,28.0</coordinates>
            </Point>
        </Placemark>
        <Placemark>
            <name>president</name>
            <open>1</open>
            <description>mac: 20:0c:c8:2a:13:80 freq: 2462 signal: -89</description>
            <TimeStamp>
                <when>2017-10-27T16:25:58</when>
            </TimeStamp>
            <Point>
                <coordinates>34.80700602,32.17078967,29.0</coordinates>
            </Point>
        </Placemark>
        <Placemark>
            <name>rojavi_EXT</name>
            <open>1</open>
            <description>mac: d4:6e:0e:3c:2f:99 freq: 2462 signal: -84</description>
            <TimeStamp>
                <when>2017-10-27T16:26:09</when>
            </TimeStamp>
            <Point>
                <coordinates>34.80746254753361,32.17189056898307,51.12442568890585</coordinates>
            </Point>
        </Placemark>
        <Placemark>
            <name>rojavi2017</name>
            <open>1</open>
            <description>mac: 00:1d:aa:0f:59:f0 freq: 2462 signal: -84</description>
            <TimeStamp>
                <when>2017-10-27T16:26:09</when>
            </TimeStamp>
            <Point>
                <coordinates>34.80746254753361,32.17189056898307,51.12442568890585</coordinates>
            </Point>
        </Placemark>
        <Placemark>
            <name>HOTFiber-1B7F</name>
            <open>1</open>
            <description>mac: 7c:b7:33:ea:b7:bd freq: 2462 signal: -90</description>
            <TimeStamp>
                <when>2017-10-27T16:25:58</when>
            </TimeStamp>
            <Point>
                <coordinates>34.80700602,32.17078967,29.0</coordinates>
            </Point>
        </Placemark>
        <Placemark>
            <name>harry</name>
            <open>1</open>
            <description>mac: 14:ae:db:47:49:9d freq: 2412 signal: -96</description>
            <TimeStamp>
                <when>2017-10-27T16:25:58</when>
            </TimeStamp>
            <Point>
                <coordinates>34.80700602,32.17078967,29.0</coordinates>
            </Point>
        </Placemark>
        <Placemark>
            <name>Mouly</name>
            <open>1</open>
            <description>mac: 7c:b7:33:2e:76:73 freq: 2462 signal: -79</description>
            <TimeStamp>
                <when>2017-10-27T16:16:26</when>
            </TimeStamp>
            <Point>
                <coordinates>34.8101175,32.167987</coordinates>
            </Point>
        </Placemark>
        <Placemark>
            <name>888Guest</name>
            <open>1</open>
            <description>mac: 02:8d:db:6e:71:bf freq: 2412 signal: -80</description>
            <TimeStamp>
                <when>2017-10-27T16:16:26</when>
            </TimeStamp>
            <Point>
                <coordinates>34.8101175,32.167987</coordinates>
            </Point>
        </Placemark>
        <Placemark>
            <name>Guest Neetwork MM</name>
            <open>1</open>
            <description>mac: 94:f6:65:1b:b2:28 freq: 2432 signal: -78</description>
            <TimeStamp>
                <when>2017-10-27T16:19:09</when>
            </TimeStamp>
            <Point>
                <coordinates>34.80736423,32.16732278,24.0</coordinates>
            </Point>
        </Placemark>
        <Placemark>
            <name>RDK</name>
            <open>1</open>
            <description>mac: 58:b6:33:34:81:a8 freq: 2412 signal: -84</description>
            <TimeStamp>
                <when>2017-10-27T16:27:36</when>
            </TimeStamp>
            <Point>
                <coordinates>34.81126309,32.17046806,20.0</coordinates>
            </Point>
        </Placemark>
        <Placemark>
            <name>Guymic</name>
            <open>1</open>
            <description>mac: 14:ae:db:b7:99:2d freq: 2437 signal: -84</description>
            <TimeStamp>
                <when>2017-10-27T16:27:36</when>
            </TimeStamp>
            <Point>
                <coordinates>34.81126309,32.17046806,20.0</coordinates>
            </Point>
        </Placemark>
        <Placemark>
            <name>HOTFiber-A53E</name>
            <open>1</open>
            <description>mac: 7c:b7:33:a1:7e:98 freq: 2462 signal: -87</description>
            <TimeStamp>
                <when>2017-10-27T16:27:36</when>
            </TimeStamp>
            <Point>
                <coordinates>34.81126309,32.17046806,20.0</coordinates>
            </Point>
        </Placemark>
        <Placemark>
            <name>rdk</name>
            <open>1</open>
            <description>mac: e4:d3:f1:9a:81:60 freq: 2447 signal: -90</description>
            <TimeStamp>
                <when>2017-10-27T16:27:36</when>
            </TimeStamp>
            <Point>
                <coordinates>34.81126309,32.17046806,20.0</coordinates>
            </Point>
        </Placemark>
        <Placemark>
            <name>stephane</name>
            <open>1</open>
            <description>mac: 14:cc:20:eb:e7:53 freq: 2412 signal: -76</description>
            <TimeStamp>
                <when>2017-10-27T16:27:48</when>
            </TimeStamp>
            <Point>
                <coordinates>34.81073625,32.1692516,30.0</coordinates>
            </Point>
        </Placemark>
        <Placemark>
            <name>lavel-2</name>
            <open>1</open>
            <description>mac: 74:da:38:ae:91:7b freq: 2417 signal: -81</description>
            <TimeStamp>
                <when>2017-10-27T16:35:43</when>
            </TimeStamp>
            <Point>
                <coordinates>34.80949456,32.16732018,11.0</coordinates>
            </Point>
        </Placemark>
        <Placemark>
            <name></name>
            <open>1</open>
            <description>mac: 02:8d:db:6e:71:be freq: 2462 signal: -81</description>
            <TimeStamp>
                <when>2017-10-27T16:17:01</when>
            </TimeStamp>
            <Point>
                <coordinates>34.80992484668563,32.167671222901205,39.29407685136998</coordinates>
            </Point>
        </Placemark>
        <Placemark>
            <name>Voicesense_guest</name>
            <open>1</open>
            <description>mac: 90:6c:ac:aa:61:a2 freq: 2462 signal: -67</description>
            <TimeStamp>
                <when>2017-10-27T16:41:13</when>
            </TimeStamp>
            <Point>
                <coordinates>34.8104454,32.163365,34.0</coordinates>
            </Point>
        </Placemark>
        <Placemark>
            <name>Innovation-AfricA</name>
            <open>1</open>
            <description>mac: cc:b2:55:e6:11:d8 freq: 2437 signal: -72</description>
            <TimeStamp>
                <when>2017-10-27T16:41:13</when>
            </TimeStamp>
            <Point>
                <coordinates>34.8104454,32.163365,34.0</coordinates>
            </Point>
        </Placemark>
        <Placemark>
            <name>shremadv</name>
            <open>1</open>
            <description>mac: a0:ab:1b:5f:26:50 freq: 2457 signal: -76</description>
            <TimeStamp>
                <when>2017-10-27T16:41:13</when>
            </TimeStamp>
            <Point>
                <coordinates>34.8104454,32.163365,34.0</coordinates>
            </Point>
        </Placemark>
        <Placemark>
            <name>WeDiggIT's Lab Guest</name>
            <open>1</open>
            <description>mac: 66:a2:0b:6a:c3:a0 freq: 2437 signal: -78</description>
            <TimeStamp>
                <when>2017-10-27T16:41:13</when>
            </TimeStamp>
            <Point>
                <coordinates>34.8104454,32.163365,34.0</coordinates>
            </Point>
        </Placemark>
        <Placemark>
            <name>WeDiggIT's Lab Guest</name>
            <open>1</open>
            <description>mac: 66:f4:25:6a:c3:a0 freq: 2412 signal: -78</description>
            <TimeStamp>
                <when>2017-10-27T16:41:13</when>
            </TimeStamp>
            <Point>
                <coordinates>34.8104454,32.163365,34.0</coordinates>
            </Point>
        </Placemark>
        <Placemark>
            <name>WeDiggIT</name>
            <open>1</open>
            <description>mac: 64:a5:c3:6a:07:10 freq: 2462 signal: -78</description>
            <TimeStamp>
                <when>2017-10-27T16:41:13</when>
            </TimeStamp>
            <Point>
                <coordinates>34.8104454,32.163365,34.0</coordinates>
            </Point>
        </Placemark>
        <Placemark>
            <name>Micasah2</name>
            <open>1</open>
            <description>mac: 74:da:38:c3:45:a5 freq: 2422 signal: -77</description>
            <TimeStamp>
                <when>2017-10-27T16:41:16</when>
            </TimeStamp>
            <Point>
                <coordinates>34.81062535,32.16364015,33.0</coordinates>
            </Point>
        </Placemark>
        <Placemark>
            <name>WeDiggIT's Lab Wi-Fi 5GHz</name>
            <open>1</open>
            <description>mac: 64:a5:c3:6a:0b:a2 freq: 2437 signal: -79</description>
            <TimeStamp>
                <when>2017-10-27T16:41:13</when>
            </TimeStamp>
            <Point>
                <coordinates>34.8104454,32.163365,34.0</coordinates>
            </Point>
        </Placemark>
        <Placemark>
            <name>WeDiggIT's Lab Wi-Fi</name>
            <open>1</open>
            <description>mac: 64:a5:c3:6a:25:f4 freq: 2412 signal: -79</description>
            <TimeStamp>
                <when>2017-10-27T16:41:13</when>
            </TimeStamp>
            <Point>
                <coordinates>34.8104454,32.163365,34.0</coordinates>
            </Point>
        </Placemark>
        <Placemark>
            <name>Techtrends</name>
            <open>1</open>
            <description>mac: 6c:f0:49:aa:44:a6 freq: 2437 signal: -81</description>
            <TimeStamp>
                <when>2017-10-27T16:41:13</when>
            </TimeStamp>
            <Point>
                <coordinates>34.8104454,32.163365,34.0</coordinates>
            </Point>
        </Placemark>
        <Placemark>
            <name>RS_GUEST</name>
            <open>1</open>
            <description>mac: ec:08:6b:38:0d:0e freq: 2467 signal: -83</description>
            <TimeStamp>
                <when>2017-10-27T16:36:10</when>
            </TimeStamp>
            <Point>
                <coordinates>34.80839578626845,32.166978766852225,37.828088870592815</coordinates>
            </Point>
        </Placemark>
        <Placemark>
            <name>EL5</name>
            <open>1</open>
            <description>mac: 14:ae:db:3d:b1:55 freq: 5240 signal: -88</description>
            <TimeStamp>
                <when>2017-10-27T16:37:07</when>
            </TimeStamp>
            <Point>
                <coordinates>34.80786315,32.16710326,26.0</coordinates>
            </Point>
        </Placemark>
        <Placemark>
            <name>0506679780</name>
            <open>1</open>
            <description>mac: 5a:fe:e3:03:c7:b3 freq: 2437 signal: -73</description>
            <TimeStamp>
                <when>2017-10-27T16:37:10</when>
            </TimeStamp>
            <Point>
                <coordinates>34.80810925,32.16701367,22.0</coordinates>
            </Point>
        </Placemark>
        <Placemark>
            <name>RS_GUEST</name>
            <open>1</open>
            <description>mac: ec:08:6b:38:0d:0d freq: 5220 signal: -91</description>
            <TimeStamp>
                <when>2017-10-27T16:36:07</when>
            </TimeStamp>
            <Point>
                <coordinates>34.80863658,32.16685938,14.0</coordinates>
            </Point>
        </Placemark>
        <Placemark>
            <name>Kadabra-Guest</name>
            <open>1</open>
            <description>mac: 02:1d:aa:7c:8c:f8 freq: 2462 signal: -79</description>
            <TimeStamp>
                <when>2017-10-27T16:36:03</when>
            </TimeStamp>
            <Point>
                <coordinates>34.80886888,32.16686101,25.0</coordinates>
            </Point>
        </Placemark>
        <Placemark>
            <name>Bello1</name>
            <open>1</open>
            <description>mac: 80:1f:02:51:34:d2 freq: 2437 signal: -71</description>
            <TimeStamp>
                <when>2017-10-27T16:39:23</when>
            </TimeStamp>
            <Point>
                <coordinates>34.80704332,32.16270182,18.0</coordinates>
            </Point>
        </Placemark>
        <Placemark>
            <name>JONEY_2.4</name>
            <open>1</open>
            <description>mac: 6c:b0:ce:3a:83:4e freq: 2412 signal: -73</description>
            <TimeStamp>
                <when>2017-10-27T16:39:23</when>
            </TimeStamp>
            <Point>
                <coordinates>34.80704332,32.16270182,18.0</coordinates>
            </Point>
        </Placemark>
        <Placemark>
            <name>TNCAPF791CB</name>
            <open>1</open>
            <description>mac: c4:ea:1d:f7:91:cb freq: 2462 signal: -76</description>
            <TimeStamp>
                <when>2017-10-27T16:39:23</when>
            </TimeStamp>
            <Point>
                <coordinates>34.80704332,32.16270182,18.0</coordinates>
            </Point>
        </Placemark>
        <Placemark>
            <name>DIRECT-7iM2020 Series</name>
            <open>1</open>
            <description>mac: 32:cd:a7:1e:df:40 freq: 2462 signal: -77</description>
            <TimeStamp>
                <when>2017-10-27T16:39:23</when>
            </TimeStamp>
            <Point>
                <coordinates>34.80704332,32.16270182,18.0</coordinates>
            </Point>
        </Placemark>
        <Placemark>
            <name>ran</name>
            <open>1</open>
            <description>mac: 14:ae:db:32:cf:62 freq: 2457 signal: -77</description>
            <TimeStamp>
                <when>2017-10-27T16:39:23</when>
            </TimeStamp>
            <Point>
                <coordinates>34.80704332,32.16270182,18.0</coordinates>
            </Point>
        </Placemark>
        <Placemark>
            <name></name>
            <open>1</open>
            <description>mac: 88:dc:96:17:c0:9e freq: 2437 signal: -58</description>
            <TimeStamp>
                <when>2017-10-27T16:40:02</when>
            </TimeStamp>
            <Point>
                <coordinates>34.80923164,32.16172805,13.0</coordinates>
            </Point>
        </Placemark>
        <Placemark>
            <name>GUEST</name>
            <open>1</open>
            <description>mac: 00:0c:e6:02:d1:6e freq: 2437 signal: -79</description>
            <TimeStamp>
                <when>2017-10-27T16:39:23</when>
            </TimeStamp>
            <Point>
                <coordinates>34.80704332,32.16270182,18.0</coordinates>
            </Point>
        </Placemark>
        <Placemark>
            <name>VITEC-IL</name>
            <open>1</open>
            <description>mac: 80:26:89:0d:5a:2c freq: 2452 signal: -80</description>
            <TimeStamp>
                <when>2017-10-27T16:39:41</when>
            </TimeStamp>
            <Point>
                <coordinates>34.80861643,32.16203317,17.0</coordinates>
            </Point>
        </Placemark>
        <Placemark>
            <name>HP-Print-A7-Officejet Pro 6830</name>
            <open>1</open>
            <description>mac: dc:4a:3e:39:49:a7 freq: 2437 signal: -82</description>
            <TimeStamp>
                <when>2017-10-27T16:39:23</when>
            </TimeStamp>
            <Point>
                <coordinates>34.80704332,32.16270182,18.0</coordinates>
            </Point>
        </Placemark>
        <Placemark>
            <name>INGENEO</name>
            <open>1</open>
            <description>mac: cc:b2:55:e8:4c:e6 freq: 2437 signal: -77</description>
            <TimeStamp>
                <when>2017-10-27T16:36:15</when>
            </TimeStamp>
            <Point>
                <coordinates>34.80785425837527,32.16717453256868,36.963385177446035</coordinates>
            </Point>
        </Placemark>
        <Placemark>
            <name>YamNadlan</name>
            <open>1</open>
            <description>mac: 34:8a:ae:ff:c0:96 freq: 2412 signal: -62</description>
            <TimeStamp>
                <when>2017-10-27T16:25:52</when>
            </TimeStamp>
            <Point>
                <coordinates>34.80675484,32.17019592,31.0</coordinates>
            </Point>
        </Placemark>
        <Placemark>
            <name>YamNadlan</name>
            <open>1</open>
            <description>mac: 34:8a:ae:ff:c0:97 freq: 5260 signal: -81</description>
            <TimeStamp>
                <when>2017-10-27T16:25:49</when>
            </TimeStamp>
            <Point>
                <coordinates>34.80660114,32.1699381,44.0</coordinates>
            </Point>
        </Placemark>
        <Placemark>
            <name>DIRECT-06-HP OfficeJet Pro 8710</name>
            <open>1</open>
            <description>mac: 98:e7:f4:42:88:07 freq: 2462 signal: -83</description>
            <TimeStamp>
                <when>2017-10-27T16:25:49</when>
            </TimeStamp>
            <Point>
                <coordinates>34.80660114,32.1699381,44.0</coordinates>
            </Point>
        </Placemark>
        <Placemark>
            <name>Doswald</name>
            <open>1</open>
            <description>mac: d8:fb:5e:17:64:22 freq: 2462 signal: -87</description>
            <TimeStamp>
                <when>2017-10-27T16:25:49</when>
            </TimeStamp>
            <Point>
                <coordinates>34.80660114,32.1699381,44.0</coordinates>
            </Point>
        </Placemark>
        <Placemark>
            <name>Doswald</name>
            <open>1</open>
            <description>mac: d0:84:b0:ff:1b:55 freq: 2462 signal: -88</description>
            <TimeStamp>
                <when>2017-10-27T16:25:49</when>
            </TimeStamp>
            <Point>
                <coordinates>34.80660114,32.1699381,44.0</coordinates>
            </Point>
        </Placemark>
        <Placemark>
            <name>HOTBOX-3A94</name>
            <open>1</open>
            <description>mac: c0:ac:54:f8:0c:1f freq: 2462 signal: -85</description>
            <TimeStamp>
                <when>2017-10-27T16:25:17</when>
            </TimeStamp>
            <Point>
                <coordinates>34.8055402036524,32.16791299864552,47.31571052984631</coordinates>
            </Point>
        </Placemark>
        <Placemark>
            <name>DIRECT-AA-HP OfficeJet Pro 8710</name>
            <open>1</open>
            <description>mac: 30:e1:71:d5:5c:ab freq: 2452 signal: -93</description>
            <TimeStamp>
                <when>2017-10-27T16:24:28</when>
            </TimeStamp>
            <Point>
                <coordinates>34.80286516,32.16777778,31.0</coordinates>
            </Point>
        </Placemark>
        <Placemark>
            <name>drupe_kitchen</name>
            <open>1</open>
            <description>mac: 14:ae:db:38:cc:ad freq: 2462 signal: -81</description>
            <TimeStamp>
                <when>2017-10-27T16:39:28</when>
            </TimeStamp>
            <Point>
                <coordinates>34.80736448,32.16256149,20.0</coordinates>
            </Point>
        </Placemark>
        <Placemark>
            <name>JWN</name>
            <open>1</open>
            <description>mac: 6c:b0:ce:33:a2:d0 freq: 2462 signal: -85</description>
            <TimeStamp>
                <when>2017-10-27T16:38:08</when>
            </TimeStamp>
            <Point>
                <coordinates>34.80634707,32.16336032,22.0</coordinates>
            </Point>
        </Placemark>
        <Placemark>
            <name>oved-main</name>
            <open>1</open>
            <description>mac: 74:da:3a:97:66:9e freq: 2437 signal: -77</description>
            <TimeStamp>
                <when>2017-10-27T16:28:07</when>
            </TimeStamp>
            <Point>
                <coordinates>34.80990526256212,32.16765491327528,43.51845960559633</coordinates>
            </Point>
        </Placemark>
        <Placemark>
            <name>oved-main_2EX</name>
            <open>1</open>
            <description>mac: 74:da:38:97:66:9d freq: 2437 signal: -79</description>
            <TimeStamp>
                <when>2017-10-27T16:28:07</when>
            </TimeStamp>
            <Point>
                <coordinates>34.80990526256212,32.16765491327528,43.51845960559633</coordinates>
            </Point>
        </Placemark>
        <Placemark>
            <name>DIRECT-A4-HP OfficeJet 6950</name>
            <open>1</open>
            <description>mac: c8:d3:ff:f9:48:a5 freq: 2412 signal: -77</description>
            <TimeStamp>
                <when>2017-10-27T16:27:41</when>
            </TimeStamp>
            <Point>
                <coordinates>34.81102347,32.16997562,32.0</coordinates>
            </Point>
        </Placemark>
        <Placemark>
            <name>HOTBOX6</name>
            <open>1</open>
            <description>mac: d8:fb:5e:17:62:4d freq: 2472 signal: -90</description>
            <TimeStamp>
                <when>2017-10-27T16:28:07</when>
            </TimeStamp>
            <Point>
                <coordinates>34.80990526256212,32.16765491327528,43.51845960559633</coordinates>
            </Point>
        </Placemark>
        <Placemark>
            <name>bait</name>
            <open>1</open>
            <description>mac: 10:be:f5:3f:b2:ce freq: 2442 signal: -93</description>
            <TimeStamp>
                <when>2017-10-27T16:28:07</when>
            </TimeStamp>
            <Point>
                <coordinates>34.80990526256212,32.16765491327528,43.51845960559633</coordinates>
            </Point>
        </Placemark>
        <Placemark>
            <name>oved-main</name>
            <open>1</open>
            <description>mac: 74:da:39:54:b8:1d freq: 2437 signal: -88</description>
            <TimeStamp>
                <when>2017-10-27T16:27:48</when>
            </TimeStamp>
            <Point>
                <coordinates>34.81069134,32.16925256,19.0</coordinates>
            </Point>
        </Placemark>
        <Placemark>
            <name>HeliconBooks</name>
            <open>1</open>
            <description>mac: e8:cc:18:eb:7b:2b freq: 2437 signal: -79</description>
            <TimeStamp>
                <when>2017-10-27T16:42:33</when>
            </TimeStamp>
            <Point>
                <coordinates>34.811647221222564,32.165540225673055,35.44840938456033</coordinates>
            </Point>
        </Placemark>
        <Placemark>
            <name>BEZEQINT-D131</name>
            <open>1</open>
            <description>mac: 14:ae:db:55:d1:35 freq: 2462 signal: -80</description>
            <TimeStamp>
                <when>2017-10-27T16:42:33</when>
            </TimeStamp>
            <Point>
                <coordinates>34.811647221222564,32.165540225673055,35.44840938456033</coordinates>
            </Point>
        </Placemark>
        <Placemark>
            <name>office_rooter_2</name>
            <open>1</open>
            <description>mac: 74:da:38:6d:45:e8 freq: 2412 signal: -84</description>
            <TimeStamp>
                <when>2017-10-27T16:42:33</when>
            </TimeStamp>
            <Point>
                <coordinates>34.811647221222564,32.165540225673055,35.44840938456033</coordinates>
            </Point>
        </Placemark>
        <Placemark>
            <name></name>
            <open>1</open>
            <description>mac: f0:7f:06:68:aa:62 freq: 2472 signal: -85</description>
            <TimeStamp>
                <when>2017-10-27T16:42:33</when>
            </TimeStamp>
            <Point>
                <coordinates>34.811647221222564,32.165540225673055,35.44840938456033</coordinates>
            </Point>
        </Placemark>
        <Placemark>
            <name>DekelE</name>
            <open>1</open>
            <description>mac: 48:ee:0c:ea:e7:c8 freq: 2437 signal: -79</description>
            <TimeStamp>
                <when>2017-10-27T16:41:49</when>
            </TimeStamp>
            <Point>
                <coordinates>34.81160525,32.16550181,35.0</coordinates>
            </Point>
        </Placemark>
        <Placemark>
            <name>HP-Print-82-LaserJet 200 color</name>
            <open>1</open>
            <description>mac: 68:94:23:24:b1:82 freq: 2437 signal: -80</description>
            <TimeStamp>
                <when>2017-10-27T16:42:41</when>
            </TimeStamp>
            <Point>
                <coordinates>34.81157988,32.16563477,37.0</coordinates>
            </Point>
        </Placemark>
        <Placemark>
            <name></name>
            <open>1</open>
            <description>mac: f0:7f:06:02:21:3c freq: 5220 signal: -84</description>
            <TimeStamp>
                <when>2017-10-27T16:42:31</when>
            </TimeStamp>
            <Point>
                <coordinates>34.811607,32.16549714,36.0</coordinates>
            </Point>
        </Placemark>
        <Placemark>
            <name>AppleWiFiSecure</name>
            <open>1</open>
            <description>mac: f0:7f:06:02:21:3e freq: 5220 signal: -87</description>
            <TimeStamp>
                <when>2017-10-27T16:42:34</when>
            </TimeStamp>
            <Point>
                <coordinates>34.81158323,32.16550614,37.0</coordinates>
            </Point>
        </Placemark>
        <Placemark>
            <name></name>
            <open>1</open>
            <description>mac: f0:7f:06:02:21:3d freq: 5220 signal: -87</description>
            <TimeStamp>
                <when>2017-10-27T16:42:34</when>
            </TimeStamp>
            <Point>
                <coordinates>34.81158323,32.16550614,37.0</coordinates>
            </Point>
        </Placemark>
        <Placemark>
            <name>GetAlert-GW</name>
            <open>1</open>
            <description>mac: 70:3a:cb:cf:37:ea freq: 2462 signal: -88</description>
            <TimeStamp>
                <when>2017-10-27T16:42:33</when>
            </TimeStamp>
            <Point>
                <coordinates>34.811647221222564,32.165540225673055,35.44840938456033</coordinates>
            </Point>
        </Placemark>
        <Placemark>
            <name>kaymeraQA</name>
            <open>1</open>
            <description>mac: 00:f6:63:3a:f4:80 freq: 2412 signal: -84</description>
            <TimeStamp>
                <when>2017-10-27T16:37:19</when>
            </TimeStamp>
            <Point>
                <coordinates>34.80857819,32.16680671,17.0</coordinates>
            </Point>
        </Placemark>
        <Placemark>
            <name>Candan</name>
            <open>1</open>
            <description>mac: c0:ff:d4:7b:82:30 freq: 2412 signal: -85</description>
            <TimeStamp>
                <when>2017-10-27T16:44:17</when>
            </TimeStamp>
            <Point>
                <coordinates>34.80916947,32.16798421,26.0</coordinates>
            </Point>
        </Placemark>
        <Placemark>
            <name>Bezeq Free</name>
            <open>1</open>
            <description>mac: 5a:b0:ce:33:a4:d6 freq: 2412 signal: -71</description>
            <TimeStamp>
                <when>2017-10-27T16:24:07</when>
            </TimeStamp>
            <Point>
                <coordinates>34.80267393,32.16780051,35.0</coordinates>
            </Point>
        </Placemark>
        <Placemark>
            <name>hagit_2.4</name>
            <open>1</open>
            <description>mac: 6c:b0:ce:33:a4:d5 freq: 2412 signal: -74</description>
            <TimeStamp>
                <when>2017-10-27T16:24:07</when>
            </TimeStamp>
            <Point>
                <coordinates>34.80267393,32.16780051,35.0</coordinates>
            </Point>
        </Placemark>
        <Placemark>
            <name>Student</name>
            <open>1</open>
            <description>mac: 46:d9:e7:04:ff:09 freq: 2437 signal: -79</description>
            <TimeStamp>
                <when>2017-10-27T16:20:31</when>
            </TimeStamp>
            <Point>
                <coordinates>34.80265279,32.16828018,34.0</coordinates>
            </Point>
        </Placemark>
        <Placemark>
            <name>770</name>
            <open>1</open>
            <description>mac: ec:22:80:b3:2e:10 freq: 2437 signal: -80</description>
            <TimeStamp>
                <when>2017-10-27T16:20:31</when>
            </TimeStamp>
            <Point>
                <coordinates>34.80265279,32.16828018,34.0</coordinates>
            </Point>
        </Placemark>
        <Placemark>
            <name>770</name>
            <open>1</open>
            <description>mac: 14:ae:db:b1:ac:0d freq: 2462 signal: -82</description>
            <TimeStamp>
                <when>2017-10-27T16:20:31</when>
            </TimeStamp>
            <Point>
                <coordinates>34.80265279,32.16828018,34.0</coordinates>
            </Point>
        </Placemark>
        <Placemark>
            <name>smadarwifi</name>
            <open>1</open>
            <description>mac: 44:d9:e7:04:ff:09 freq: 2437 signal: -82</description>
            <TimeStamp>
                <when>2017-10-27T16:20:31</when>
            </TimeStamp>
            <Point>
                <coordinates>34.80265279,32.16828018,34.0</coordinates>
            </Point>
        </Placemark>
        <Placemark>
            <name>Student</name>
            <open>1</open>
            <description>mac: 46:d9:e7:04:ff:83 freq: 2462 signal: -82</description>
            <TimeStamp>
                <when>2017-10-27T16:20:31</when>
            </TimeStamp>
            <Point>
                <coordinates>34.80265279,32.16828018,34.0</coordinates>
            </Point>
        </Placemark>
        <Placemark>
            <name>hagit_5</name>
            <open>1</open>
            <description>mac: 6c:b0:ce:33:a4:d6 freq: 5200 signal: -83</description>
            <TimeStamp>
                <when>2017-10-27T16:20:31</when>
            </TimeStamp>
            <Point>
                <coordinates>34.80265279,32.16828018,34.0</coordinates>
            </Point>
        </Placemark>
        <Placemark>
            <name>BezeqFree</name>
            <open>1</open>
            <description>mac: 06:ae:db:b1:ac:0d freq: 2462 signal: -84</description>
            <TimeStamp>
                <when>2017-10-27T16:20:31</when>
            </TimeStamp>
            <Point>
                <coordinates>34.80265279,32.16828018,34.0</coordinates>
            </Point>
        </Placemark>
        <Placemark>
            <name>dserota</name>
            <open>1</open>
            <description>mac: 00:1b:9e:7a:43:13 freq: 2437 signal: -76</description>
            <TimeStamp>
                <when>2017-10-27T16:24:04</when>
            </TimeStamp>
            <Point>
                <coordinates>34.80240578,32.16782073,26.0</coordinates>
            </Point>
        </Placemark>
        <Placemark>
            <name>ADX HOT</name>
            <open>1</open>
            <description>mac: 7c:b7:33:2c:95:41 freq: 2462 signal: -77</description>
            <TimeStamp>
                <when>2017-10-27T16:39:35</when>
            </TimeStamp>
            <Point>
                <coordinates>34.80799151,32.16229652,19.0</coordinates>
            </Point>
        </Placemark>
        <Placemark>
            <name>ADX_HOT_EX2.4G</name>
            <open>1</open>
            <description>mac: f8:e9:03:0f:24:49 freq: 2462 signal: -76</description>
            <TimeStamp>
                <when>2017-10-27T16:39:34</when>
            </TimeStamp>
            <Point>
                <coordinates>34.80787443,32.16233081,22.0</coordinates>
            </Point>
        </Placemark>
        <Placemark>
            <name>HP-Print-f8-LaserJet 300</name>
            <open>1</open>
            <description>mac: 0c:84:dc:b9:58:f8 freq: 2427 signal: -76</description>
            <TimeStamp>
                <when>2017-10-27T16:39:43</when>
            </TimeStamp>
            <Point>
                <coordinates>34.80882081,32.16192277,27.0</coordinates>
            </Point>
        </Placemark>
        <Placemark>
            <name></name>
            <open>1</open>
            <description>mac: 88:dc:96:17:c1:5c freq: 2437 signal: -53</description>
            <TimeStamp>
                <when>2017-10-27T16:40:19</when>
            </TimeStamp>
            <Point>
                <coordinates>34.80915505,32.1617472,28.0</coordinates>
            </Point>
        </Placemark>
        <Placemark>
            <name>DIRECT-OPWorkCentre 3025</name>
            <open>1</open>
            <description>mac: 9e:93:4e:3f:e8:41 freq: 2462 signal: -81</description>
            <TimeStamp>
                <when>2017-10-27T16:39:35</when>
            </TimeStamp>
            <Point>
                <coordinates>34.80799151,32.16229652,19.0</coordinates>
            </Point>
        </Placemark>
        <Placemark>
            <name>AdXP</name>
            <open>1</open>
            <description>mac: 48:f8:b3:cc:fc:1e freq: 2427 signal: -83</description>
            <TimeStamp>
                <when>2017-10-27T16:39:35</when>
            </TimeStamp>
            <Point>
                <coordinates>34.80799151,32.16229652,19.0</coordinates>
            </Point>
        </Placemark>
        <Placemark>
            <name>HP-Print-B1-Officejet Pro 8610</name>
            <open>1</open>
            <description>mac: fc:15:b4:a7:ce:b1 freq: 2427 signal: -84</description>
            <TimeStamp>
                <when>2017-10-27T16:39:13</when>
            </TimeStamp>
            <Point>
                <coordinates>34.80622228,32.16308615,18.0</coordinates>
            </Point>
        </Placemark>
        <Placemark>
            <name>DBSI</name>
            <open>1</open>
            <description>mac: 1c:b9:c4:4f:15:d8 freq: 2452 signal: -87</description>
            <TimeStamp>
                <when>2017-10-27T16:39:35</when>
            </TimeStamp>
            <Point>
                <coordinates>34.80799151,32.16229652,19.0</coordinates>
            </Point>
        </Placemark>
        <Placemark>
            <name>BezeqFree</name>
            <open>1</open>
            <description>mac: 06:ae:db:36:86:05 freq: 2462 signal: -88</description>
            <TimeStamp>
                <when>2017-10-27T16:39:35</when>
            </TimeStamp>
            <Point>
                <coordinates>34.80799151,32.16229652,19.0</coordinates>
            </Point>
        </Placemark>
        <Placemark>
            <name>KingGeorge</name>
            <open>1</open>
            <description>mac: 10:be:f5:41:b9:84 freq: 2452 signal: -83</description>
            <TimeStamp>
                <when>2017-10-27T16:39:38</when>
            </TimeStamp>
            <Point>
                <coordinates>34.80827487,32.16218382,19.0</coordinates>
            </Point>
        </Placemark>
        <Placemark>
            <name>opus7</name>
            <open>1</open>
            <description>mac: c4:12:f5:84:50:40 freq: 2447 signal: -81</description>
            <TimeStamp>
                <when>2017-10-27T16:25:20</when>
            </TimeStamp>
            <Point>
                <coordinates>34.80569708,32.16784934,36.0</coordinates>
            </Point>
        </Placemark>
        <Placemark>
            <name>anna2.4</name>
            <open>1</open>
            <description>mac: a0:ab:1b:62:76:ac freq: 2417 signal: -83</description>
            <TimeStamp>
                <when>2017-10-27T16:24:34</when>
            </TimeStamp>
            <Point>
                <coordinates>34.80285957,32.16777491,31.0</coordinates>
            </Point>
        </Placemark>
        <Placemark>
            <name>HOTBOX</name>
            <open>1</open>
            <description>mac: 7c:03:4c:fe:ba:1b freq: 2412 signal: -84</description>
            <TimeStamp>
                <when>2017-10-27T16:20:21</when>
            </TimeStamp>
            <Point>
                <coordinates>34.80343427,32.1682422,36.0</coordinates>
            </Point>
        </Placemark>
        <Placemark>
            <name>Home2</name>
            <open>1</open>
            <description>mac: ac:f1:df:9d:f7:91 freq: 2462 signal: -87</description>
            <TimeStamp>
                <when>2017-10-27T16:25:20</when>
            </TimeStamp>
            <Point>
                <coordinates>34.80569708,32.16784934,36.0</coordinates>
            </Point>
        </Placemark>
        <Placemark>
            <name>Annatel_3372</name>
            <open>1</open>
            <description>mac: 74:da:38:a9:0c:3e freq: 2417 signal: -78</description>
            <TimeStamp>
                <when>2017-10-27T16:25:30</when>
            </TimeStamp>
            <Point>
                <coordinates>34.80609552,32.16795669,35.0</coordinates>
            </Point>
        </Placemark>
        <Placemark>
            <name>Murad1</name>
            <open>1</open>
            <description>mac: f8:d1:11:75:25:64 freq: 2412 signal: -88</description>
            <TimeStamp>
                <when>2017-10-27T16:25:20</when>
            </TimeStamp>
            <Point>
                <coordinates>34.80569708,32.16784934,36.0</coordinates>
            </Point>
        </Placemark>
        <Placemark>
            <name>shlomo1</name>
            <open>1</open>
            <description>mac: 00:8c:54:8f:59:51 freq: 2437 signal: -86</description>
            <TimeStamp>
                <when>2017-10-27T16:19:44</when>
            </TimeStamp>
            <Point>
                <coordinates>34.80498734,32.16808238,40.0</coordinates>
            </Point>
        </Placemark>
        <Placemark>
            <name>Partner-4G-86E5</name>
            <open>1</open>
            <description>mac: b0:89:00:d8:86:e5 freq: 2457 signal: -88</description>
            <TimeStamp>
                <when>2017-10-27T16:19:43</when>
            </TimeStamp>
            <Point>
                <coordinates>34.80516057,32.16805121,35.0</coordinates>
            </Point>
        </Placemark>
        <Placemark>
            <name>tania_2.4</name>
            <open>1</open>
            <description>mac: 70:62:b8:31:1d:80 freq: 2462 signal: -89</description>
            <TimeStamp>
                <when>2017-10-27T16:20:22</when>
            </TimeStamp>
            <Point>
                <coordinates>34.80336019,32.16825268,35.0</coordinates>
            </Point>
        </Placemark>
        <Placemark>
            <name>shor_Ext</name>
            <open>1</open>
            <description>mac: e2:91:f5:b6:ec:a8 freq: 2462 signal: -86</description>
            <TimeStamp>
                <when>2017-10-27T16:36:45</when>
            </TimeStamp>
            <Point>
                <coordinates>34.80598605,32.16771032,34.0</coordinates>
            </Point>
        </Placemark>
        <Placemark>
            <name>4G_UFI-E63</name>
            <open>1</open>
            <description>mac: 3a:12:2d:b9:ce:63 freq: 2422 signal: -76</description>
            <TimeStamp>
                <when>2017-10-27T16:40:17</when>
            </TimeStamp>
            <Point>
                <coordinates>34.80915533,32.16174925,28.0</coordinates>
            </Point>
        </Placemark>
        <Placemark>
            <name>ESI-Guest</name>
            <open>1</open>
            <description>mac: 00:0c:e6:02:66:70 freq: 2437 signal: -77</description>
            <TimeStamp>
                <when>2017-10-27T16:40:34</when>
            </TimeStamp>
            <Point>
                <coordinates>34.80915921,32.16174708,29.0</coordinates>
            </Point>
        </Placemark>
        <Placemark>
            <name>TREEHOUSE</name>
            <open>1</open>
            <description>mac: c4:12:f5:7f:5a:15 freq: 2437 signal: -79</description>
            <TimeStamp>
                <when>2017-10-27T16:21:51</when>
            </TimeStamp>
            <Point>
                <coordinates>34.80126227,32.17183759,30.0</coordinates>
            </Point>
        </Placemark>
        <Placemark>
            <name>kenedy</name>
            <open>1</open>
            <description>mac: e8:94:f6:b7:4f:54 freq: 2432 signal: -84</description>
            <TimeStamp>
                <when>2017-10-27T16:21:51</when>
            </TimeStamp>
            <Point>
                <coordinates>34.80126227,32.17183759,30.0</coordinates>
            </Point>
        </Placemark>
        <Placemark>
            <name>HOTBOX2</name>
            <open>1</open>
            <description>mac: 7c:b7:33:2c:b9:21 freq: 2462 signal: -83</description>
            <TimeStamp>
                <when>2017-10-27T16:21:51</when>
            </TimeStamp>
            <Point>
                <coordinates>34.80126227,32.17183759,30.0</coordinates>
            </Point>
        </Placemark>
        <Placemark>
            <name>Bezeq Free</name>
            <open>1</open>
            <description>mac: 52:f1:df:a0:70:ea freq: 2437 signal: -76</description>
            <TimeStamp>
                <when>2017-10-27T16:26:01</when>
            </TimeStamp>
            <Point>
                <coordinates>34.80711018,32.17105605,29.0</coordinates>
            </Point>
        </Placemark>
        <Placemark>
            <name>DELEK-GROUP</name>
            <open>1</open>
            <description>mac: c0:25:5c:df:62:e0 freq: 2432 signal: -73</description>
            <TimeStamp>
                <when>2017-10-27T16:39:27</when>
            </TimeStamp>
            <Point>
                <coordinates>34.80729986,32.16259252,19.0</coordinates>
            </Point>
        </Placemark>
        <Placemark>
            <name>DELEK-GUEST</name>
            <open>1</open>
            <description>mac: c0:25:5c:df:62:e1 freq: 2432 signal: -73</description>
            <TimeStamp>
                <when>2017-10-27T16:39:01</when>
            </TimeStamp>
            <Point>
                <coordinates>34.80626363,32.16324212,14.0</coordinates>
            </Point>
        </Placemark>
        <Placemark>
            <name>EL</name>
            <open>1</open>
            <description>mac: 14:ae:db:3d:b1:52 freq: 2452 signal: -77</description>
            <TimeStamp>
                <when>2017-10-27T16:38:28</when>
            </TimeStamp>
            <Point>
                <coordinates>34.80626429251393,32.16322579365262,44.744037382103016</coordinates>
            </Point>
        </Placemark>
        <Placemark>
            <name>ZeroOne 2.4GHz</name>
            <open>1</open>
            <description>mac: 14:ae:db:3e:de:ea freq: 2417 signal: -77</description>
            <TimeStamp>
                <when>2017-10-27T16:38:25</when>
            </TimeStamp>
            <Point>
                <coordinates>34.80628582,32.16325827,21.0</coordinates>
            </Point>
        </Placemark>
        <Placemark>
            <name>BezeqFree</name>
            <open>1</open>
            <description>mac: 6a:12:f5:84:50:41 freq: 2447 signal: -80</description>
            <TimeStamp>
                <when>2017-10-27T16:25:06</when>
            </TimeStamp>
            <Point>
                <coordinates>34.8039691,32.16810512,36.0</coordinates>
            </Point>
        </Placemark>
        <Placemark>
            <name>IDO</name>
            <open>1</open>
            <description>mac: c4:e9:84:27:0c:aa freq: 2462 signal: -89</description>
            <TimeStamp>
                <when>2017-10-27T16:19:18</when>
            </TimeStamp>
            <Point>
                <coordinates>34.80631515,32.16772332,41.0</coordinates>
            </Point>
        </Placemark>
        <Placemark>
            <name>HP-Print-FB-Officejet Pro 8610</name>
            <open>1</open>
            <description>mac: fc:3f:db:f1:00:fb freq: 2437 signal: -88</description>
            <TimeStamp>
                <when>2017-10-27T16:37:05</when>
            </TimeStamp>
            <Point>
                <coordinates>34.80775057,32.16713504,31.0</coordinates>
            </Point>
        </Placemark>
        <Placemark>
            <name>MoragUP</name>
            <open>1</open>
            <description>mac: 50:c7:bf:8e:67:66 freq: 2412 signal: -90</description>
            <TimeStamp>
                <when>2017-10-27T16:19:18</when>
            </TimeStamp>
            <Point>
                <coordinates>34.80631515,32.16772332,41.0</coordinates>
            </Point>
        </Placemark>
        <Placemark>
            <name>TP-LINK_MENASHE</name>
            <open>1</open>
            <description>mac: 14:cc:20:93:1f:50 freq: 2462 signal: -80</description>
            <TimeStamp>
                <when>2017-10-27T16:21:37</when>
            </TimeStamp>
            <Point>
                <coordinates>34.80094101,32.1710436,34.0</coordinates>
            </Point>
        </Placemark>
        <Placemark>
            <name>Rosaness</name>
            <open>1</open>
            <description>mac: 84:18:3a:1c:c9:a8 freq: 2412 signal: -84</description>
            <TimeStamp>
                <when>2017-10-27T16:21:38</when>
            </TimeStamp>
            <Point>
                <coordinates>34.80094499,32.17109214,28.0</coordinates>
            </Point>
        </Placemark>
        <Placemark>
            <name>888Corp</name>
            <open>1</open>
            <description>mac: 0a:8d:db:6e:71:c1 freq: 2462 signal: -83</description>
            <TimeStamp>
                <when>2017-10-27T16:18:39</when>
            </TimeStamp>
            <Point>
                <coordinates>34.80965767,32.16743172,9.0</coordinates>
            </Point>
        </Placemark>
        <Placemark>
            <name></name>
            <open>1</open>
            <description>mac: 02:8d:db:6e:71:c1 freq: 2462 signal: -82</description>
            <TimeStamp>
                <when>2017-10-27T16:18:59</when>
            </TimeStamp>
            <Point>
                <coordinates>34.808596256222685,32.16690260644389,41.92228608379519</coordinates>
            </Point>
        </Placemark>
        <Placemark>
            <name>888Corp</name>
            <open>1</open>
            <description>mac: 0a:8d:cb:6e:71:c1 freq: 5180 signal: -91</description>
            <TimeStamp>
                <when>2017-10-27T16:18:39</when>
            </TimeStamp>
            <Point>
                <coordinates>34.80965767,32.16743172,9.0</coordinates>
            </Point>
        </Placemark>
        <Placemark>
            <name>gabriel</name>
            <open>1</open>
            <description>mac: 90:8d:78:50:6a:12 freq: 2462 signal: -85</description>
            <TimeStamp>
                <when>2017-10-27T16:19:53</when>
            </TimeStamp>
            <Point>
                <coordinates>34.80379573,32.16821204,40.0</coordinates>
            </Point>
        </Placemark>
        <Placemark>
            <name>BezeqFree</name>
            <open>1</open>
            <description>mac: 62:8d:78:50:6a:13 freq: 2462 signal: -84</description>
            <TimeStamp>
                <when>2017-10-27T16:19:53</when>
            </TimeStamp>
            <Point>
                <coordinates>34.80379573,32.16821204,40.0</coordinates>
            </Point>
        </Placemark>
        <Placemark>
            <name>Melinek</name>
            <open>1</open>
            <description>mac: 14:ae:db:45:27:5d freq: 2462 signal: -67</description>
            <TimeStamp>
                <when>2017-10-27T16:25:41</when>
            </TimeStamp>
            <Point>
                <coordinates>34.80631908447765,32.16915802327854,48.022361823953524</coordinates>
            </Point>
        </Placemark>
        <Placemark>
            <name>melsara</name>
            <open>1</open>
            <description>mac: 10:0d:7f:86:a4:42 freq: 2462 signal: -85</description>
            <TimeStamp>
                <when>2017-10-27T16:25:41</when>
            </TimeStamp>
            <Point>
                <coordinates>34.80631908447765,32.16915802327854,48.022361823953524</coordinates>
            </Point>
        </Placemark>
        <Placemark>
            <name>daniellalovecat-2.4</name>
            <open>1</open>
            <description>mac: 3c:1e:04:05:cc:6a freq: 2442 signal: -95</description>
            <TimeStamp>
                <when>2017-10-27T16:25:41</when>
            </TimeStamp>
            <Point>
                <coordinates>34.80631908447765,32.16915802327854,48.022361823953524</coordinates>
            </Point>
        </Placemark>
        <Placemark>
            <name>gattegnio</name>
            <open>1</open>
            <description>mac: ec:08:6b:67:fc:c5 freq: 2437 signal: -81</description>
            <TimeStamp>
                <when>2017-10-27T16:25:37</when>
            </TimeStamp>
            <Point>
                <coordinates>34.80625201,32.16864207,38.0</coordinates>
            </Point>
        </Placemark>
        <Placemark>
            <name>Life</name>
            <open>1</open>
            <description>mac: 94:b4:0f:d1:60:00 freq: 2462 signal: -75</description>
            <TimeStamp>
                <when>2017-10-27T16:41:03</when>
            </TimeStamp>
            <Point>
                <coordinates>34.80988726,32.16243581,37.0</coordinates>
            </Point>
        </Placemark>
        <Placemark>
            <name>EF_Guest</name>
            <open>1</open>
            <description>mac: 16:18:d6:a9:2a:84 freq: 2412 signal: -78</description>
            <TimeStamp>
                <when>2017-10-27T16:39:43</when>
            </TimeStamp>
            <Point>
                <coordinates>34.80882081,32.16192277,27.0</coordinates>
            </Point>
        </Placemark>